stop_lon,stop_lat,zone_id,stop_id,parent_station,stop_desc,stop_name,location_type,stop_code
174.74061,-36.87818,merged_20,11273-20180426095657_v66.18,,,Sandringham Rd and Leslie,1,11273
174.7593,-36.85275,merged_21,11024-20180426102952_v66.19,,,Hobson St/Nicholas St,1,11024
174.76898,-36.86993,merged_21,8614-20180426102952_v66.19,11517-20180426102952_v66.19,,54 Mountain Rd,0,8614
174.79404,-36.88012,merged_20,31410-20180426095657_v66.18,,,Remuera Rd and Armadale,1,31410
174.77793,-36.86796,merged_21,31898-20180426102952_v66.19,,,Broadway/Khyber Pass Rd,1,31898
174.77074,-36.85324,merged_20,1096-20180426095657_v66.18,11076-20180426095657_v66.18,,10 Grafton Rd,0,1096
174.76131999999998,-36.86231,merged_21,7151-20180426102952_v66.19,11223-20180426102952_v66.19,,157 Symonds St,0,7151
174.78241,-36.85845,merged_21,7191-20180426102952_v66.19,11504-20180426102952_v66.19,,359 Parnell Rd,0,7191
174.72851,-36.86769,merged_21,8121-20180426102952_v66.19,11113-20180426102952_v66.19,,Great North Rd near Stadium Rd,0,8121
174.7654,-36.842929999999996,merged_21,1346-20180426102952_v66.19,61140-20180426102952_v66.19,,Quay St outside PWC,0,1346
174.73084,-36.85885,merged_21,8087-20180426102952_v66.19,11087-20180426102952_v66.19,,417 Richmond Rd,0,8087
174.75212,-36.8593,merged_20,11053-20180426095657_v66.18,,,Ponsonby Rd and K'Rd,1,11053
174.73201,-36.88347,merged_21,11838-20180426102952_v66.19,,,St Lukes Rd and Wagener Pl,1,11838
174.77491,-36.86974,merged_21,8601-20180426102952_v66.19,11522-20180426102952_v66.19,,5 Gillies Ave,0,8601
174.76864,-36.846070000000005,merged_21,1340-20180426102952_v66.19,11813-20180426102952_v66.19,,Gore St near Fort St,0,1340
174.79725,-36.88074,merged_20,31406-20180426095657_v66.18,,,Remuera Shopping Centre,1,31406
174.74678,-36.872820000000004,merged_20,7288-20180426095657_v66.18,11271-20180426095657_v66.18,,2 Sandringham Rd,0,7288
174.76281,-36.85821,merged_21,1086-20180426102952_v66.19,11717-20180426102952_v66.19,,Karangahape Rd Outside Cemetery,0,1086
174.74598,-36.854440000000004,merged_20,7217-20180426095657_v66.18,11049-20180426095657_v66.18,,167 Ponsonby Rd,0,7217
174.75042,-36.87768,merged_21,8409-20180426102952_v66.19,11374-20180426102952_v66.19,,285 Dominion Rd,0,8409
174.76848,-36.84429,merged_21,0133-20180426102952_v66.19,,,Britomart Train Station,0,133
174.74076000000002,-36.84516,merged_20,11039-20180426095657_v66.18,,,Jervois Rd and Shelly Beach,1,11039
174.74393,-36.84834,merged_21,11044-20180426102952_v66.19,,,Ponsonby Rd and Pompallier,1,11044
174.78124,-36.847409999999996,merged_20,11488-20180426095657_v66.18,,,Quay St and The Strand,1,11488
174.74493,-36.87202,merged_21,8210-20180426102952_v66.19,11787-20180426102952_v66.19,,434 New North Rd,0,8210
174.76487,-36.85093,merged_20,1094-20180426095657_v66.18,11805-20180426095657_v66.18,,10 Wellesley St,0,1094
174.75238000000002,-36.8601,merged_21,11054-20180426102952_v66.19,,,Great North Rd/Ponsonby Rd,1,11054
174.73545,-36.8455,merged_21,7120-20180426102952_v66.19,11041-20180426102952_v66.19,,202 Jervois Rd,0,7120
174.7794,-36.88547,merged_21,8259-20180426102952_v66.19,11619-20180426102952_v66.19,,9 Ranfurly Rd,0,8259
174.77706,-36.87442,merged_21,11535-20180426102952_v66.19,,,Broadway/St Marks Rd,1,11535
174.78433,-36.87466,merged_21,7406-20180426102952_v66.19,31414-20180426102952_v66.19,,136 Remuera Rd,0,7406
174.76201,-36.87303,merged_21,8507-20180426102952_v66.19,11413-20180426102952_v66.19-moved,,227 Mt Eden Rd,0,8507
174.77048,-36.87575,merged_20,8620-20180426095657_v66.18,11520-20180426095657_v66.18,,128 Mountain Rd,0,8620
174.76563000000002,-36.85266,merged_20,11071-20180426095657_v66.18,,,Mayoral Dr near AUT,1,11071
174.74797,-36.87099,merged_20,8208-20180426095657_v66.18,11228-20180426095657_v66.18,,388 New North Rd,0,8208
174.75103000000001,-36.868790000000004,merged_21,8205-20180426102952_v66.19,11226-20180426102952_v66.19,,335 New North Rd,0,8205
174.75908,-36.873470000000005,merged_21,11433-20180426102952_v66.19,,,View Rd and Esplanade,1,11433
174.75968,-36.85774,merged_20,7133-20180426095657_v66.18,11057-20180426095657_v66.18,,203 Karangahape Rd,0,7133
174.75255,-36.87097,merged_20,8974-20180426095657_v66.18,11372-20180426095657_v66.18,,75 Dominion Rd,0,8974
174.78108999999998,-36.85631,merged_21,7190-20180426102952_v66.19,11503-20180426102952_v66.19,,272 Parnell Rd,0,7190
174.766,-36.8469,merged_20,7050-20180426095657_v66.18,11003-20180426095657_v66.18,,110 Queen St,0,7050
174.76331000000002,-36.85048,merged_21,7001-20180426102952_v66.19,11012-20180426102952_v66.19,,21 Wellesley St,0,7001
174.77074,-36.86557,merged_20,11710-20180426095657_v66.18,,,Park Rd/Grafton Station,1,11710
174.77883,-36.86972,merged_21,0115-20180426102952_v66.19,,,Newmarket Train Station,0,115
174.77928,-36.85365,merged_21,11501-20180426102952_v66.19,,,Parnell Rd and Akaroa,1,11501
174.77821,-36.87032,merged_21,7400-20180426102952_v66.19,31900-20180426102952_v66.19,,16 Remuera Rd,0,7400
174.76283,-36.85992,merged_21,7164-20180426102952_v66.19,11080-20180426102952_v66.19,,Symonds St Overbridge,0,7164
174.76456000000002,-36.8489,merged_21,7096-20180426102952_v66.19,11019-20180426102952_v66.19,,Victoria St near Elliott St,0,7096
174.73514,-36.878040000000006,merged_21,7209-20180426102952_v66.19,11286-20180426102952_v66.19,,Opp 24 Morningside Dr,0,7209
174.74716999999998,-36.856590000000004,merged_20,7215-20180426095657_v66.18,11050-20180426095657_v66.18,,95 Ponsonby Rd,0,7215
174.73349,-36.88495,merged_21,8042-20180426102952_v66.19,11301-20180426102952_v66.19,,5 Fowlds Ave,0,8042
174.73479,-36.87469,merged_21,8217-20180426102952_v66.19,11714-20180426102952_v66.19,,641 New North Rd,0,8217
174.79204,-36.879020000000004,merged_21,7685-20180426102952_v66.19,31427-20180426102952_v66.19,,2 Portland Rd,0,7685
174.75364,-36.84517,merged_20,7037-20180426095657_v66.18,11031-20180426095657_v66.18,,185 Fanshawe St,0,7037
174.73641,-36.85432,merged_20,11842-20180426095657_v66.18,,,Richmond Rd and Sackville,1,11842
174.76373,-36.85073,merged_21,11806-20180426102952_v66.19,,,Wellesley St West outside The Civic,1,11806
174.7625,-36.855290000000004,merged_20,1371-20180426095657_v66.18,11847-20180426095657_v66.18,,371 Queen St,0,1371
174.76281,-36.85414,merged_21,11718-20180426102952_v66.19,,,Mayoral Dr near Myers Park Overbridge,1,11718
174.7524,-36.852470000000004,merged_20,7268-20180426095657_v66.18,11060-20180426095657_v66.18,,Opp 95 Wellington St,0,7268
174.74748,-36.84813,merged_20,11008-20180426095657_v66.18,,,College Hill and New,1,11008
174.73622,-36.86287,merged_20,11099-20180426095657_v66.18,,,Surrey Cr and Selbourne,1,11099
174.76077,-36.87135,merged_20,8400-20180426095657_v66.18,11774-20180426095657_v66.18,,6 Esplanade Rd,0,8400
174.7866,-36.85354,merged_20,7659-20180426095657_v66.18,11494-20180426095657_v66.18,,48 Gladstone Rd,0,7659
174.77995,-36.849059999999994,merged_20,1358-20180426095657_v66.18,61143-20180426095657_v66.18,,The Strand by Cotesmore Way,0,1358
174.76336,-36.859,merged_21,7158-20180426102952_v66.19,11080-20180426102952_v66.19,,Symonds St Overbridge,0,7158
174.76452,-36.85759,merged_20,7159-20180426095657_v66.18,11079-20180426095657_v66.18,,110 Symonds St,0,7159
174.79263999999998,-36.84861,merged_20,11490-20180426095657_v66.18,,,Tamaki Dr near Parnell Pools,1,11490
174.78759,-36.85633,merged_21,7656-20180426102952_v66.19,11496-20180426102952_v66.19,,59 St Stephens Ave,0,7656
174.77389,-36.87838,merged_21,11584-20180426102952_v66.19,,,Owens Road near Epsom Girls Grammar,1,11584
174.76062,-36.850559999999994,merged_21,11023-20180426102952_v66.19,,,Hobson St/St Matthews-in-the-City,1,11023
174.79276000000002,-36.881209999999996,merged_21,31411-20180426102952_v66.19,,,Remuera Primary School,1,31411
174.7622,-36.86423,merged_21,7170-20180426102952_v66.19,11510-20180426102952_v66.19,,44 Khyber Pass Rd,0,7170
174.78589,-36.850559999999994,merged_20,7648-20180426095657_v66.18,11492-20180426095657_v66.18,,Gladstone Rd outside Rose Gardens,0,7648
174.76181,-36.87514,merged_20,8506-20180426095657_v66.18,11414-20180426095657_v66.18,,272 Mt Eden Rd,0,8506
174.74153,-36.87296,merged_20,11231-20180426095657_v66.18,,,New North Rd and Kingsland,1,11231
174.76351,-36.86463,merged_20,11764-20180426095657_v66.18,,,Khyber Pass Rd and Madeira,1,11764
174.7798,-36.85448,merged_20,1477-20180426095657_v66.18,11502-20180426095657_v66.18,,177 Parnell Rd,0,1477
174.74501999999998,-36.85191,merged_21,7219-20180426102952_v66.19,11047-20180426102952_v66.19,,215 Ponsonby Rd,0,7219
174.79019,-36.865559999999995,merged_20,7671-20180426095657_v66.18,31420-20180426095657_v66.18,,19 Shore Rd,0,7671
174.78579,-36.8505,merged_20,7655-20180426095657_v66.18,11492-20180426095657_v66.18,,92 Gladstone Rd,0,7655
174.74103,-36.86646,merged_20,8111-20180426095657_v66.18,11109-20180426095657_v66.18,,401 Great North Rd,0,8111
174.73232,-36.8756,merged_20,8219-20180426095657_v66.18,11234-20180426095657_v66.18,,679 New North Rd,0,8219
174.77212,-36.880309999999994,merged_21,11763-20180426102952_v66.19,,,Gillies Ave and Domett,1,11763
174.72855,-36.8792,merged_21,8868-20180426102952_v66.19,11288-20180426102952_v66.19,,15 St Lukes Rd,0,8868
174.7438,-36.847,merged_21,11009-20180426102952_v66.19,,,Jervois Rd and St Marys,1,11009
174.7548,-36.848209999999995,merged_21,7106-20180426102952_v66.19,11034-20180426102952_v66.19,,210 Victoria St West,0,7106
174.77846,-36.86672,merged_21,7199-20180426102952_v66.19,31899-20180426102952_v66.19,,Broadway near Olympic Pools,0,7199
174.76093,-36.86837,merged_21,11713-20180426102952_v66.19,,,Mt Eden Rd and Enfield,1,11713
174.76126000000002,-36.88523,merged_21,8514-20180426102952_v66.19,11418-20180426102952_v66.19,,532 Mt Eden Rd,0,8514
174.78537,-36.875370000000004,merged_20,7407-20180426095657_v66.18,31901-20180426095657_v66.18,,161 Remuera Rd,0,7407
174.76762,-36.859759999999994,merged_20,7282-20180426095657_v66.18,11508-20180426095657_v66.18,,Grafton Rd near Auckland Hospital Gate 4,0,7282
174.77187,-36.84644,merged_20,7140-20180426095657_v66.18,11066-20180426095657_v66.18,,2 Anzac Ave,0,7140
174.76135,-36.87109,merged_21,8504-20180426102952_v66.19,11412-20180426102952_v66.19,,104 Mt Eden Rd,0,8504
174.76295,-36.85971,merged_20,7162-20180426095657_v66.18,11080-20180426095657_v66.18,,Symonds St Overbridge,0,7162
174.76033999999999,-36.84977,merged_20,1088-20180426095657_v66.18,11740-20180426095657_v66.18,,Wellesley St opp Albion Hotel,0,1088
174.78282,-36.8739,merged_21,7405-20180426102952_v66.19,31415-20180426102952_v66.19,,115 Remuera Rd,0,7405
174.76223000000002,-36.84698,merged_20,1464-20180426095657_v66.18,11017-20180426095657_v66.18,,56 Hobson St,0,1464
174.75703000000001,-36.84806,merged_20,7105-20180426095657_v66.18,11033-20180426095657_v66.18,,201 Victoria St West,0,7105
174.76862,-36.87216,merged_21,11518-20180426102952_v66.19,,,Mountain Rd and Clive,1,11518
174.78053,-36.86335,merged_21,7197-20180426102952_v66.19,11507-20180426102952_v66.19,,545 Parnell Rd,0,7197
174.75171,-36.87415,merged_21,11373-20180426102952_v66.19,,,Dominion Rd and Onslow,1,11373
174.78468,-36.88218,merged_20,7604-20180426095657_v66.18,11750-20180426095657_v66.18,,144 Great South Rd,0,7604
174.75413,-36.84507,merged_21,1072-20180426102952_v66.19,11700-20180426102952_v66.19,,2 Daldy St,0,1072
174.75079,-36.868959999999994,merged_20,11226-20180426095657_v66.18,,,New North Rd and George,1,11226
174.78198999999998,-36.86175,merged_20,11506-20180426095657_v66.18,,,Parnell Rd and Ayr,1,11506
174.7327,-36.88165,merged_20,11287-20180426095657_v66.18,,,Morningside Dr and St Lukes,1,11287
174.73738,-36.86477,merged_20,11104-20180426095657_v66.18,,,Surrey Crescent Shops,1,11104
174.7391,-36.85556,merged_20,8082-20180426095657_v66.18,11083-20180426095657_v66.18,,148 Richmond Rd,0,8082
174.74400000000003,-36.849309999999996,merged_21,7222-20180426102952_v66.19,11045-20180426102952_v66.19,,Opp 253 Ponsonby Rd,0,7222
174.76449,-36.857409999999994,merged_21,11079-20180426102952_v66.19,,,Symonds St/Karangahape Rd,1,11079
174.76134,-36.87788,merged_21,8508-20180426102952_v66.19,11415-20180426102952_v66.19,,328 Mt Eden Rd,0,8508
174.74826000000002,-36.88432,merged_21,8415-20180426102952_v66.19,11377-20180426102952_v66.19,,445 Dominion Rd,0,8415
174.74885,-36.88248,merged_21,8413-20180426102952_v66.19,11376-20180426102952_v66.19,,425 Dominion Rd,0,8413
174.73944,-36.8853,merged_20,8048-20180426095657_v66.18,11398-20180426095657_v66.18,,275 Balmoral Rd,0,8048
174.75574,-36.85839,merged_21,7136-20180426102952_v66.19,11055-20180426102952_v66.19,,Karangahape Rd Overbridge near Cobden St,0,7136
174.79457,-36.87287,merged_20,31425-20180426095657_v66.18,,,Portland Rd and Aldred,1,31425
174.78071,-36.872479999999996,merged_21,31416-20180426102952_v66.19,,,Remuera Rd and Belmont,1,31416
174.76334,-36.853429999999996,merged_21,11020-20180426102952_v66.19,,,Town Hall,1,11020
174.743,-36.88603,merged_20,8050-20180426095657_v66.18,11399-20180426095657_v66.18,,233 Balmoral Rd,0,8050
174.74505,-36.85257,merged_21,11048-20180426102952_v66.19,,,Ponsonby Rd and Vermont,1,11048
174.75195,-36.859359999999995,merged_20,7212-20180426095657_v66.18,11053-20180426095657_v66.18,,14 Ponsonby Rd,0,7212
174.73991999999998,-36.880340000000004,merged_20,11274-20180426095657_v66.18,,,Sandringham Rd and Gribblehirst,1,11274
174.79654,-36.88053,merged_20,8538-20180426095657_v66.18,31406-20180426095657_v66.18,,320 Remuera Rd,0,8538
174.78542,-36.88138,merged_21,0114-20180426102952_v66.19,,,Remuera Train Station,0,114
174.76958,-36.85163,merged_20,11068-20180426095657_v66.18,,,Alfred St by U of A,1,11068
174.73985,-36.88548,merged_21,8047-20180426102952_v66.19,11398-20180426102952_v66.19,,270 Balmoral Rd,0,8047
174.78229,-36.86149,merged_21,7196-20180426102952_v66.19,11506-20180426102952_v66.19,,470 Parnell Rd,0,7196
174.72857,-36.87888,merged_21,8863-20180426102952_v66.19,11288-20180426102952_v66.19,,14 St Lukes Rd,0,8863
174.74403999999998,-36.85695,merged_20,11802-20180426095657_v66.18,,,Richmond Rd and Fitxroy,1,11802
174.7869,-36.85994,merged_20,7660-20180426095657_v66.18,11498-20180426095657_v66.18,,40 Brighton Rd,0,7660
174.77725,-36.86741,merged_21,31418-20180426102952_v66.19,,,Khyber Pass Rd/Broadway,1,31418
174.77402,-36.86673,merged_20,8541-20180426095657_v66.18,11514-20180426095657_v66.18,,Khyber Pass Rd Opp McColl St,0,8541
174.76587,-36.842620000000004,merged_21,9630-20180426102952_v66.19,96001-20180426102952_v66.19,,Downtown Ferry Terminal Pier 4,0,9630
174.78892,-36.8544,merged_21,11495-20180426102952_v66.19,,,St Stephens Ave and Canterbury,1,11495
174.73318999999998,-36.88387,merged_20,8044-20180426095657_v66.18,11289-20180426095657_v66.18,,Outside St Lukes Mall,0,8044
174.76214,-36.85647,merged_21,7062-20180426102952_v66.19,11021-20180426102952_v66.19,,490 Queen St,0,7062
174.75697,-36.86683,merged_21,8202-20180426102952_v66.19,11225-20180426102952_v66.19,,100 New North Rd,0,8202
174.77921,-36.85331,merged_20,7188-20180426095657_v66.18,11501-20180426095657_v66.18,,128 Parnell Rd,0,7188
174.75328000000002,-36.84445,merged_21,1303-20180426102952_v66.19,11737-20180426102952_v66.19,,101 Beaumont St,0,1303
174.76216000000002,-36.85603,merged_20,7061-20180426095657_v66.18,11021-20180426095657_v66.18,,385 Queen St,0,7061
174.75082,-36.87688,merged_21,8410-20180426102952_v66.19,11374-20180426102952_v66.19,,270 Dominion Rd,0,8410
174.73521000000002,-36.874990000000004,merged_20,0104-20180426095657_v66.18,,,Morningside Train Station,0,104
174.76747,-36.85494,merged_20,7152-20180426095657_v66.18,11077-20180426095657_v66.18,,44 Symonds St,0,7152
174.75486,-36.85778,merged_21,11063-20180426102952_v66.19,,,Howe St and Hopetoun,1,11063
174.76496,-36.85107,merged_21,7006-20180426102952_v66.19,11805-20180426102952_v66.19,,Wellesley St East outside ASB Bank,0,7006
174.78677,-36.853840000000005,merged_20,7652-20180426095657_v66.18,11494-20180426095657_v66.18,,43 Gladstone Rd,0,7652
174.76197,-36.84467,merged_21,11029-20180426102952_v66.19,,,Sturdee St and Market,1,11029
174.76378,-36.848690000000005,merged_20,11846-20180426095657_v66.18,,,Victoria St/Albert St,1,11846
174.72915,-36.87787,merged_21,11236-20180426102952_v66.19,,,New North Rd and St Lukes,1,11236
174.743,-36.84796,merged_21,7224-20180426102952_v66.19,11044-20180426102952_v66.19,,Redmond St near Sheehan St,0,7224
174.76616,-36.84271,merged_20,9620-20180426095657_v66.18,96001-20180426095657_v66.18,,Downtown Ferry Terminal Pier 3,0,9620
174.72881999999998,-36.84957,merged_21,8498-20180426102952_v66.19,11089-20180426102952_v66.19,,28 West End Rd,0,8498
174.7624,-36.84817,merged_21,7099-20180426102952_v66.19,11015-20180426102952_v66.19,,Victoria St West opp Sky Tower,0,7099
174.74575,-36.859970000000004,merged_21,8891-20180426102952_v66.19,11100-20180426102952_v66.19,,33 Williamson Ave,0,8891
174.74085,-36.86315,merged_21,11102-20180426102952_v66.19,,,Williamson Ave and Elgin,1,11102
174.73484,-36.84541,merged_20,11041-20180426095657_v66.18,,,Jervois Rd and Lawrence,1,11041
174.78278999999998,-36.86005,merged_20,11505-20180426095657_v66.18,,,Parnell Rd and St Marys,1,11505
174.76677,-36.84245,merged_21,9610-20180426102952_v66.19,96001-20180426102952_v66.19,,Downtown Ferry Terminal Pier 2,0,9610
174.7772,-36.87072,merged_21,7203-20180426102952_v66.19,31417-20180426102952_v66.19,,277 Broadway,0,7203
174.75893,-36.84935,merged_21,1090-20180426102952_v66.19,11741-20180426102952_v66.19,,Opp 103 Wellesley St,0,1090
174.76837,-36.84424,merged_21,7024-20180426102952_v66.19,11814-20180426102952_v66.19,,Commerce St near Tyler St,0,7024
174.75788,-36.845890000000004,merged_20,11030-20180426095657_v66.18,,,Fanshawe St and Bouzaid Way,1,11030
174.73301,-36.8614,merged_21,11712-20180426102952_v66.19,,,560 Richmond Rd,1,11712
174.74784,-36.845890000000004,merged_20,11035-20180426095657_v66.18,,,St Marys College,1,11035
174.76425,-36.85163,merged_21,7056-20180426102952_v66.19,11014-20180426102952_v66.19,,Queen St outside St James,0,7056
174.76475,-36.85046,merged_21,7054-20180426102952_v66.19,11013-20180426102952_v66.19,,280 Queen St,0,7054
174.75423999999998,-36.85407,merged_21,7237-20180426102952_v66.19,11061-20180426102952_v66.19,,145 Howe St,0,7237
174.74014,-36.88006,merged_21,8308-20180426102952_v66.19,11274-20180426102952_v66.19,,218 Sandringham Rd,0,8308
174.76763,-36.84595,merged_21,7028-20180426102952_v66.19,11813-20180426102952_v66.19,,16-18 Commerce St,0,7028
174.76196000000002,-36.85393,merged_20,1364-20180426095657_v66.18,11718-20180426095657_v66.18,,Mayoral Dr near Greys Ave,0,1364
174.73793999999998,-36.86481,merged_20,8897-20180426095657_v66.18,11104-20180426095657_v66.18,,135 Williamson Ave,0,8897
174.76119,-36.865840000000006,merged_21,8501-20180426102952_v66.19,11411-20180426102952_v66.19,,Mt Eden Rd near Nikau St,0,8501
174.74451000000002,-36.85091,merged_21,7220-20180426102952_v66.19,11046-20180426102952_v66.19,,254 Ponsonby Rd,0,7220
174.766,-36.84919,merged_20,11804-20180426095657_v66.18,,,Victoria St East and High,1,11804
174.73994,-36.86699,merged_20,11110-20180426095657_v66.18,,,Great North Rd/St Joseph's Church,1,11110
174.76099,-36.85183,merged_20,11011-20180426095657_v66.18,,,Mayoral Drive/Aotea Centre,1,11011
174.72991000000002,-36.85566,merged_21,8085-20180426102952_v66.19,11086-20180426102952_v66.19,,311 Richmond Rd,0,8085
174.7319,-36.85927,merged_20,8090-20180426095657_v66.18,11087-20180426095657_v66.18,,472 Richmond Rd,0,8090
174.77693,-36.87258,merged_20,7205-20180426095657_v66.18,11534-20180426095657_v66.18,,359 Broadway,0,7205
174.77136000000002,-36.883559999999996,merged_21,8608-20180426102952_v66.19,11526-20180426102952_v66.19,,174 Gillies Ave,0,8608
174.75882,-36.847770000000004,merged_20,1053-20180426095657_v66.18,11032-20180426095657_v66.18,,Victoria St near Hardinge St,0,1053
174.78113000000002,-36.84982,merged_20,61143-20180426095657_v66.18,,,The Strand/Cotesmore Way,1,61143
174.74969,-36.85178,merged_21,11058-20180426102952_v66.19,,,Wellington St and Collingwood,1,11058
174.74017,-36.85683,merged_21,1024-20180426102952_v66.19,11082-20180426102952_v66.19,,104 Richmond Rd,0,1024
174.76758999999998,-36.854820000000004,merged_21,7150-20180426102952_v66.19,11077-20180426102952_v66.19,,38 Symonds St,0,7150
174.74854,-36.84852,merged_20,11038-20180426095657_v66.18,,,College Hill and England,1,11038
174.78843,-36.876709999999996,merged_20,7408-20180426095657_v66.18,31413-20180426095657_v66.18,,202 Remuera Rd,0,7408
174.79587,-36.87053,merged_20,31423-20180426095657_v66.18,,,Portland Rd and Scherff,1,31423
174.74647,-36.86479,merged_21,11107-20180426102952_v66.19,,,Great North Rd/King St,1,11107
174.78009,-36.86388,merged_21,7198-20180426102952_v66.19,11507-20180426102952_v66.19,,540 Parnell Rd,0,7198
174.74453,-36.87251,merged_21,0122-20180426102952_v66.19,,,Kingsland Train Station,0,122
174.74403999999998,-36.8656,merged_21,11108-20180426102952_v66.19,,,Great North Rd/Bond St,1,11108
174.74827,-36.88471,merged_21,8416-20180426102952_v66.19,11377-20180426102952_v66.19,,510 Dominion Rd,0,8416
174.74294,-36.86183,merged_20,11101-20180426095657_v66.18,,,Williamson Ave and Dickens,1,11101
174.7665,-36.84527,merged_21,1342-20180426102952_v66.19,11845-20180426102952_v66.19,,44 Queen St,0,1342
174.73815,-36.88583,merged_21,8309-20180426102952_v66.19,11276-20180426102952_v66.19,,371 Sandringham Rd,0,8309
174.74053,-36.85694,merged_20,8077-20180426095657_v66.18,11082-20180426095657_v66.18,,101 Richmond Rd,0,8077
174.76561,-36.84346,merged_20,11808-20180426095657_v66.18,,,Britomart,1,11808
174.74774,-36.88586,merged_21,8417-20180426102952_v66.19,11378-20180426102952_v66.19,,487 Dominion Rd,0,8417
174.74398,-36.872820000000004,merged_21,8301-20180426102952_v66.19,11711-20180426102952_v66.19,,27 Sandringham Rd,0,8301
174.75,-36.848240000000004,merged_20,11037-20180426095657_v66.18,,,College Hill and Gudgeon,1,11037
174.76174,-36.85703,merged_20,7063-20180426095657_v66.18,11022-20180426095657_v66.18,,421 Queen St,0,7063
174.76169,-36.857479999999995,merged_20,7064-20180426095657_v66.18,11022-20180426095657_v66.18,,520 Queen St,0,7064
174.75607,-36.858290000000004,merged_20,11055-20180426095657_v66.18,,,Karangahape Rd/Motorway Overbridge,1,11055
174.73515,-36.87835,merged_20,7292-20180426095657_v66.18,11286-20180426095657_v66.18,,24 Morningside Dr,0,7292
174.76055,-36.87043,merged_20,11773-20180426095657_v66.18,,,Mt Eden Rd and Kelly,1,11773
174.73192,-36.84738,merged_21,11042-20180426102952_v66.19,,,Jervois Rd and Wharf,1,11042
174.77133,-36.88332,merged_21,8609-20180426102952_v66.19,11526-20180426102952_v66.19,,209 Gillies Ave,0,8609
174.78826,-36.854009999999995,merged_21,7661-20180426102952_v66.19,11495-20180426102952_v66.19,,13 Canterbury Pl,0,7661
174.72994,-36.86696,merged_21,11800-20180426102952_v66.19,,,Great North Rd/Bullock Track & MOTAT,1,11800
174.77063,-36.87758,merged_20,8625-20180426095657_v66.18,11521-20180426095657_v66.18,,151 Mountain Rd,0,8625
174.75055,-36.86157,merged_21,8102-20180426102952_v66.19,11105-20180426102952_v66.19,,76 Great North Rd,0,8102
174.76137,-36.865829999999995,merged_20,11411-20180426095657_v66.18,,,Mt Eden Rd and Nikau,1,11411
174.7611,-36.84773,merged_20,7101-20180426095657_v66.18,11007-20180426095657_v66.18,,115 Victoria St West,0,7101
174.77182,-36.86626,merged_20,7178-20180426095657_v66.18,11513-20180426095657_v66.18,,Opp 371 Khyber Pass Rd,0,7178
174.73492,-36.8639,merged_21,11111-20180426102952_v66.19,,,Great North Rd/Grey Lynn School,1,11111
174.79265,-36.87773,merged_20,7676-20180426095657_v66.18,31426-20180426095657_v66.18,,Opp 14 Portland Rd,0,7676
174.77001,-36.867540000000005,merged_21,11516-20180426102952_v66.19,,,St Peters School,1,11516
174.76488,-36.84883,merged_20,11019-20180426095657_v66.18,,,Victoria St and Queen,1,11019
174.75655,-36.847409999999996,merged_21,61136-20180426102952_v66.19,,,Halsey St nr Victoria Park,1,61136
174.77979,-36.87738,merged_21,11593-20180426102952_v66.19,,,Great South Rd/Ngaire Ave,1,11593
174.76088000000001,-36.868190000000006,merged_20,8503-20180426095657_v66.18,11713-20180426095657_v66.18,,97 Mt Eden Rd,0,8503
174.73035,-36.86337,merged_21,8481-20180426102952_v66.19,11097-20180426102952_v66.19,,180 Surrey Cr,0,8481
174.73178000000001,-36.85455,merged_21,8083-20180426102952_v66.19,11085-20180426102952_v66.19,,271 Richmond Rd,0,8083
174.73198,-36.87597,merged_21,11234-20180426102952_v66.19,,,New North Rd and Rocky Nook,1,11234
174.79619,-36.867670000000004,merged_20,31422-20180426095657_v66.18,,,Portland Rd and Standen,1,31422
174.77468000000002,-36.86698,merged_20,7177-20180426095657_v66.18,11514-20180426095657_v66.18,,419 Khyber Pass Rd,0,7177
174.78891000000002,-36.8772,merged_20,7409-20180426095657_v66.18,31413-20180426095657_v66.18,,Opp 206 Remuera Rd,0,7409
174.7391,-36.85517,merged_20,8079-20180426095657_v66.18,11083-20180426095657_v66.18,,155 Richmond Rd,0,8079
174.76266,-36.84578,merged_21,7080-20180426102952_v66.19,11016-20180426102952_v66.19,,26 Hobson St,0,7080
174.73727,-36.87364,merged_20,8215-20180426095657_v66.18,11232-20180426095657_v66.18,,597 New North Rd,0,8215
174.77729,-36.87096,merged_20,7202-20180426095657_v66.18,31417-20180426095657_v66.18,,322 Broadway,0,7202
174.79594,-36.88348,merged_21,1516-20180426102952_v66.19,31403-20180426102952_v66.19,,Clonbern Rd Hail and Ride,0,1516
174.76557,-36.84798,merged_21,11004-20180426102952_v66.19,,,Queen St and Durham,1,11004
174.76428,-36.85111,merged_21,11014-20180426102952_v66.19,,,Civic Centre,1,11014
174.77323,-36.87588,merged_21,11523-20180426102952_v66.19,,,Gillies Ave and Silver,1,11523
174.7545,-36.856359999999995,merged_21,7232-20180426102952_v66.19,11062-20180426102952_v66.19,,Opp 45 Howe St,0,7232
174.74253000000002,-36.88604,merged_20,11399-20180426095657_v66.18,,,Balmoral Rd and Goring,1,11399
174.76548,-36.85674,merged_20,11803-20180426095657_v66.18,,,Symonds St/Whitaker Place,1,11803
174.75823,-36.84786,merged_20,11033-20180426095657_v66.18,,,Victoria St and Halsey,1,11033
174.73713999999998,-36.88498,merged_20,7999-20180426095657_v66.18,11290-20180426095657_v66.18,,111 St Lukes Rd,0,7999
174.75638999999998,-36.858059999999995,merged_20,7135-20180426095657_v66.18,11055-20180426095657_v66.18,,Karangahape Rd Overbridge Eastbound,0,7135
174.74883,-36.85817,merged_21,11052-20180426102952_v66.19,,,Williamson Ave and Rose,1,11052
174.76984,-36.86561,merged_20,0277-20180426095657_v66.18,,,Grafton Train Station,0,277
174.75581,-36.87705,merged_20,11436-20180426095657_v66.18,,,Valley Rd and Pentland,1,11436
174.77715,-36.87143,merged_21,7206-20180426102952_v66.19,31417-20180426102952_v66.19,,332 Broadway,0,7206
174.7841,-36.8832,merged_21,11749-20180426102952_v66.19,,,Market Rd and Mt St John,1,11749
174.77598,-36.8814,merged_20,8704-20180426095657_v66.18,11538-20180426095657_v66.18,,146-148 Manukau Rd,0,8704
174.74623,-36.87166,merged_20,8211-20180426095657_v66.18,11229-20180426095657_v66.18,,437 New North Rd,0,8211
174.75295,-36.87219,merged_21,8405-20180426102952_v66.19,11431-20180426102952_v66.19,,77 View Rd,0,8405
174.73169,-36.85472,merged_20,8086-20180426095657_v66.18,11085-20180426095657_v66.18,,280 Richmond Rd,0,8086
174.79457,-36.87273,merged_20,7679-20180426095657_v66.18,31425-20180426095657_v66.18,,74 Portland Rd,0,7679
174.76779,-36.84491,merged_20,11815-20180426095657_v66.18,,,Britomart,1,11815
174.79367,-36.87554,merged_21,31424-20180426102952_v66.19,,,Portland Rd and Eastbourne,1,31424
174.76856,-36.872209999999995,merged_20,8619-20180426095657_v66.18,11518-20180426095657_v66.18,,87 Mountain Rd,0,8619
174.79613,-36.867309999999996,merged_21,7675-20180426102952_v66.19,31422-20180426102952_v66.19,,Opp 161 Portland Rd,0,7675
174.76973999999998,-36.84539,merged_20,11018-20180426095657_v66.18,,,Customs St East/Britomart,1,11018
174.76296000000002,-36.86437,merged_21,7174-20180426102952_v66.19,11510-20180426102952_v66.19,,66 Khyber Pass Rd,0,7174
174.78656,-36.85985,merged_21,7667-20180426102952_v66.19,11498-20180426102952_v66.19,,35 Brighton Rd,0,7667
174.76908999999998,-36.86103,merged_20,11509-20180426095657_v66.18,,,Park Rd/Auckland City Hospital,1,11509
174.7685,-36.84509,merged_21,7020-20180426102952_v66.19,11813-20180426102952_v66.19,,32 Customs St East,0,7020
174.73821,-36.886070000000004,merged_20,8312-20180426095657_v66.18,11276-20180426095657_v66.18,,400 Sandringham Rd,0,8312
174.78632,-36.8522,merged_20,7650-20180426095657_v66.18,11493-20180426095657_v66.18,,75 Gladstone Rd,0,7650
174.76155,-36.86249,merged_21,7168-20180426102952_v66.19,11223-20180426102952_v66.19,,150 Symonds St,0,7168
174.74836000000002,-36.858309999999996,merged_21,8889-20180426102952_v66.19,11052-20180426102952_v66.19,,1 Williamson Ave,0,8889
174.77558,-36.884679999999996,merged_21,11540-20180426102952_v66.19,,,Manukau Rd and Ranfurly,1,11540
174.7284,-36.84969,merged_20,11089-20180426095657_v66.18,,,West End Rd and Jervois,1,11089
174.79321000000002,-36.87708,merged_20,7683-20180426095657_v66.18,31426-20180426095657_v66.18,,20 Portland Rd,0,7683
174.74351000000001,-36.87311,merged_20,11711-20180426095657_v66.18,,,Sandringham Rd near Walters Rd,1,11711
174.77071999999998,-36.87761,merged_21,11521-20180426102952_v66.19,,,Mountain Rd and Sharpe,1,11521
174.77996000000002,-36.87766,merged_20,7601-20180426095657_v66.18,11593-20180426095657_v66.18,,29 Great South Rd,0,7601
174.76827,-36.84448,merged_20,7026-20180426095657_v66.18,11000-20180426095657_v66.18,,Commerce St near Galway St,0,7026
174.74871000000002,-36.86286,merged_20,8105-20180426095657_v66.18,11106-20180426095657_v66.18,,165 Great North Rd,0,8105
174.75898999999998,-36.86796,merged_20,0118-20180426095657_v66.18,,,Mt Eden Train Station,0,118
174.7464,-36.85309,merged_21,7261-20180426102952_v66.19,11059-20180426102952_v66.19,,13 Franklin Rd,0,7261
174.74153,-36.86645,merged_20,8110-20180426095657_v66.18,11109-20180426095657_v66.18,,410 Great North Rd,0,8110
174.78833999999998,-36.84772,merged_20,11489-20180426095657_v66.18,,,Tamaki Dr and Solent,1,11489
174.77584,-36.881170000000004,merged_20,8703-20180426095657_v66.18,11538-20180426095657_v66.18,,179 Manukau Rd,0,8703
174.77014,-36.86117,merged_21,7228-20180426102952_v66.19,11509-20180426102952_v66.19,,Auckland Hospital,0,7228
174.75603,-36.872859999999996,merged_21,8403-20180426102952_v66.19,11432-20180426102952_v66.19,,47 View Rd,0,8403
174.76162,-36.86228,merged_21,7166-20180426102952_v66.19,11223-20180426102952_v66.19,,150 Symonds St,0,7166
174.77161,-36.85078,merged_21,7145-20180426102952_v66.19,11072-20180426102952_v66.19,,3 Symonds St,0,7145
174.76214,-36.88196,merged_21,8510-20180426102952_v66.19,11416-20180426102952_v66.19,,444 Mt Eden Rd,0,8510
174.78462,-36.858270000000005,merged_21,11497-20180426102952_v66.19,,,St Stephens Ave and Brighton,1,11497
174.77424,-36.84535,merged_21,7003-20180426102952_v66.19,11487-20180426102952_v66.19,,Quay St near Tangihua St,0,7003
174.7615,-36.88371,merged_20,8512-20180426095657_v66.18,11417-20180426095657_v66.18,,Opp 459 Mt Eden Rd,0,8512
174.73754,-36.86571,merged_20,11801-20180426095657_v66.18,,,Great North Rd/Grey Lynn Shops,1,11801
174.77798,-36.851859999999995,merged_21,7186-20180426102952_v66.19,11500-20180426102952_v66.19,,Parnell Rise near Parnell Rd,0,7186
174.76926,-36.87332,merged_21,8621-20180426102952_v66.19,11519-20180426102952_v66.19,,103 Mountain Rd,0,8621
174.7382,-36.86484,merged_20,8894-20180426095657_v66.18,11731-20180426095657_v66.18,,144 Williamson Ave,0,8894
174.74075,-36.87822,merged_20,8306-20180426095657_v66.18,11273-20180426095657_v66.18,,174 Sandringham Rd,0,8306
174.76789,-36.85427,merged_21,11077-20180426102952_v66.19,,,Symonds St/St Paul's Church (Universities),1,11077
174.79357,-36.8757,merged_20,7681-20180426095657_v66.18,31424-20180426095657_v66.18,,36 Portland Rd,0,7681
174.75634,-36.84748,merged_20,1334-20180426095657_v66.18,61136-20180426095657_v66.18,,Opp 9 Halsey St,0,1334
174.76716000000002,-36.8528,merged_20,11070-20180426095657_v66.18,,,Wellesley St East and Princess,1,11070
174.7511,-36.87555,merged_21,8407-20180426102952_v66.19,11778-20180426102952_v66.19,,215 Dominion Rd,0,8407
174.75461,-36.85618,merged_20,7235-20180426095657_v66.18,11062-20180426095657_v66.18,,75 Howe St,0,7235
174.77132,-36.86626,merged_20,11513-20180426095657_v66.18,,,Khyber Pass Rd/Mountain Rd,1,11513
174.78195,-36.87907,merged_20,11594-20180426095657_v66.18,,,Great South Rd/Dilworth School,1,11594
174.77886,-36.8855,merged_21,8260-20180426102952_v66.19,11619-20180426102952_v66.19,,Opp 19 Ranfurly Rd,0,8260
174.78285,-36.849109999999996,merged_21,1331-20180426102952_v66.19,11511-20180426102952_v66.19,,165 The Strand,0,1331
174.77028,-36.866640000000004,merged_21,11515-20180426102952_v66.19,,,Mountain Rd and Khyber Pass,1,11515
174.77185,-36.85078,merged_20,7146-20180426095657_v66.18,11072-20180426095657_v66.18,,4 Symonds St,0,7146
174.76084,-36.85787,merged_20,7131-20180426095657_v66.18,11056-20180426095657_v66.18,,145 Karangahape Rd,0,7131
174.75198,-36.86023,merged_21,8101-20180426102952_v66.19,11054-20180426102952_v66.19,,41 Great North Rd,0,8101
174.75886,-36.85575,merged_21,1524-20180426102952_v66.19,11026-20180426102952_v66.19,,Opp 29 Pitt St,0,1524
174.78625,-36.852340000000005,merged_21,7657-20180426102952_v66.19,11493-20180426102952_v66.19,,82 Gladstone Rd,0,7657
174.78078,-36.87267,merged_20,7403-20180426095657_v66.18,31416-20180426095657_v66.18,,93 Remuera Rd,0,7403
174.77307,-36.87703,merged_20,8604-20180426095657_v66.18,11524-20180426095657_v66.18,,122 Gillies Ave,0,8604
174.7853,-36.8831,merged_20,11595-20180426095657_v66.18,,,Great South Rd/Market Rd,1,11595
174.7884,-36.86487,merged_20,7633-20180426095657_v66.18,31419-20180426095657_v66.18,,9 Shore Rd,0,7633
174.75316999999998,-36.84451,merged_20,1304-20180426095657_v66.18,11737-20180426095657_v66.18,,106 Beaumont St,0,1304
174.79291,-36.84898,merged_21,7309-20180426102952_v66.19,11490-20180426102952_v66.19,,Tamaki Dr near Parnell Baths,0,7309
174.74266,-36.85716,merged_20,8078-20180426095657_v66.18,11081-20180426095657_v66.18,,54 Richmond Rd,0,8078
174.78285,-36.87378,merged_20,31415-20180426095657_v66.18,,,Remuera Rd St Marks,1,31415
174.76779,-36.85463,merged_20,7148-20180426095657_v66.18,11077-20180426095657_v66.18,,36 Symonds St,0,7148
174.76174,-36.84534,merged_21,11028-20180426102952_v66.19,,,Fanshawe St and Bradnor,1,11028
174.74993999999998,-36.87914,merged_21,8411-20180426102952_v66.19,11375-20180426102952_v66.19,,337 Dominion Rd,0,8411
174.76608000000002,-36.844609999999996,merged_21,7015-20180426102952_v66.19,11812-20180426102952_v66.19,,Customs St West near Queen St,0,7015
174.78446,-36.85822,merged_21,7665-20180426102952_v66.19,11497-20180426102952_v66.19,,16 St Stephens Ave,0,7665
174.74378000000002,-36.84717,merged_20,7114-20180426095657_v66.18,11009-20180426095657_v66.18,,2 Jervois Rd,0,7114
174.76115,-36.88535,merged_20,8515-20180426095657_v66.18,11418-20180426095657_v66.18,,471 Mt Eden Rd,0,8515
174.73498,-36.87471,merged_20,11714-20180426095657_v66.18,,,New North Rd by Morningside Station,1,11714
174.76637,-36.84513,merged_21,11845-20180426102952_v66.19,,,44 to 45 Queen St,1,11845
174.73318,-36.86217,merged_20,11098-20180426095657_v66.18,,,Surrey Cr and Richmond,1,11098
174.76147,-36.849959999999996,merged_20,1083-20180426095657_v66.18,11708-20180426095657_v66.18,,Wellesley St near Hobson St,0,1083
174.78094,-36.856320000000004,merged_21,7189-20180426102952_v66.19,11503-20180426102952_v66.19,,279 Parnell Rd,0,7189
174.77455,-36.85067,merged_20,11075-20180426095657_v66.18,,,Beach Rd and Churchill,1,11075
174.78408000000002,-36.84872,merged_21,7646-20180426102952_v66.19,11491-20180426102952_v66.19,,Opp 112 Gladstone Rd,0,7646
174.77361000000002,-36.84715,merged_21,7182-20180426102952_v66.19,11073-20180426102952_v66.19,,Opp 87 Beach Rd,0,7182
174.74958999999998,-36.851659999999995,merged_20,7270-20180426095657_v66.18,11058-20180426095657_v66.18,,147 Wellington St,0,7270
174.75277,-36.8709,merged_20,11372-20180426095657_v66.18,,,Dominion Rd and Charles,1,11372
174.75417,-36.85413,merged_21,7234-20180426102952_v66.19,11061-20180426102952_v66.19,,144 Howe St,0,7234
174.75177,-36.87622,merged_20,1404-20180426095657_v66.18,11434-20180426095657_v66.18,,Opp 111 Valley Rd,0,1404
174.7649,-36.8499,merged_21,11013-20180426102952_v66.19,,,237 to 280 Queen St,1,11013
174.75888,-36.84791,merged_20,7104-20180426095657_v66.18,11032-20180426095657_v66.18,,156 Victoria St West,0,7104
174.77074,-36.88597,merged_20,11527-20180426095657_v66.18,,,Gillies Ave and Koha,1,11527
174.75993,-36.8733,merged_20,8402-20180426095657_v66.18,11433-20180426095657_v66.18,,40 Esplanade Rd,0,8402
174.76853,-36.84394,merged_20,1338-20180426095657_v66.18,11814-20180426095657_v66.18,,Commerce St Between Quay And Tyler,0,1338
174.77461,-36.84993,merged_21,7184-20180426102952_v66.19,11075-20180426102952_v66.19,,154 Beach Rd,0,7184
174.74818,-36.86347,merged_20,11106-20180426095657_v66.18,,,Great North Rd/Sussex St,1,11106
174.74996000000002,-36.87956,merged_20,8412-20180426095657_v66.18,11375-20180426095657_v66.18,,360 Dominion Rd,0,8412
174.77113,-36.8491,merged_20,7014-20180426095657_v66.18,11067-20180426095657_v66.18,,18 Waterloo Quadrant,0,7014
174.76613,-36.84446,merged_20,11812-20180426095657_v66.18,,,Customs St West near Queen,1,11812
174.73769,-36.86575,merged_20,8115-20180426095657_v66.18,11801-20180426095657_v66.18,,523 Great North Rd,0,8115
174.74896,-36.85757,merged_21,11051-20180426102952_v66.19,,,Ponsonby Rd and Williamson,1,11051
174.7777,-36.87896,merged_20,11617-20180426095657_v66.18,,,Margot Street and Clyde,1,11617
174.7687,-36.85112,merged_20,1729-20180426095657_v66.18,11726-20180426095657_v66.18,,28 Princes St,0,1729
174.77857,-36.866820000000004,merged_20,7200-20180426095657_v66.18,31899-20180426095657_v66.18,,114 Broadway,0,7200
174.78295,-36.8599,merged_20,7194-20180426095657_v66.18,11505-20180426095657_v66.18,,Parnell Rd opp St Marys Close,0,7194
174.78906,-36.86515,merged_21,7664-20180426102952_v66.19,31419-20180426102952_v66.19,,Opp 15 Shore Rd,0,7664
174.77705,-36.87619,merged_21,11536-20180426102952_v66.19,,,Manukau Rd and Great South,1,11536
174.77671999999998,-36.88521,merged_20,7697-20180426095657_v66.18,11761-20180426095657_v66.18,,43 Ranfurly Rd,0,7697
174.75377,-36.84805,merged_21,7107-20180426102952_v66.19,11034-20180426102952_v66.19,,Victoria St West near Victoria Park,0,7107
174.79433,-36.880340000000004,merged_21,7413-20180426102952_v66.19,31410-20180426102952_v66.19,,273 Remuera Rd,0,7413
174.73305,-36.88146,merged_21,8866-20180426102952_v66.19,11287-20180426102952_v66.19,,Opp 63 Morningside Dr,0,8866
174.75542,-36.84567,merged_21,1315-20180426102952_v66.19,11031-20180426102952_v66.19,,Fanshawe St opp Victoria Park,0,1315
174.76651,-36.85194,merged_21,7088-20180426102952_v66.19,11069-20180426102952_v66.19,,Wellesley St East near Art Gallery,0,7088
174.75996,-36.86564,merged_21,11224-20180426102952_v66.19,,,New North Rd and Mt Eden,1,11224
174.76407,-36.85797,merged_20,7156-20180426095657_v66.18,11079-20180426095657_v66.18,,Symonds St Cemetery,0,7156
174.76193999999998,-36.88127,merged_20,8513-20180426095657_v66.18,11416-20180426095657_v66.18,,415 Mt Eden Rd,0,8513
174.78231,-36.8581,merged_20,7192-20180426095657_v66.18,11504-20180426095657_v66.18,,390 Parnell Rd,0,7192
174.76233,-36.85021,merged_20,7091-20180426095657_v66.18,11012-20180426095657_v66.18,,Wellesley St West near Albert St,0,7091
174.75554,-36.87692,merged_20,8978-20180426095657_v66.18,11436-20180426095657_v66.18,,77 Valley Rd,0,8978
174.7374,-36.87372,merged_21,8214-20180426102952_v66.19,11232-20180426102952_v66.19,,580 New North Rd,0,8214
174.75246,-36.85236,merged_20,11060-20180426095657_v66.18,,,Wellington St and Hepburn,1,11060
174.79131999999998,-36.87925,merged_21,7410-20180426102952_v66.19,31412-20180426102952_v66.19,,240 Remuera Rd,0,7410
174.76583,-36.85508,merged_20,7128-20180426095657_v66.18,11078-20180426095657_v66.18,,84 Wakefield St,0,7128
174.76716000000002,-36.8449,merged_20,7016-20180426095657_v66.18,11813-20180426095657_v66.18,,Customs St East near Queens Arcade,0,7016
174.75936000000002,-36.8801,merged_20,1302-20180426095657_v66.18,11437-20180426095657_v66.18,,26 Valley Rd,0,1302
174.74165,-36.87283,merged_20,8213-20180426095657_v66.18,11231-20180426095657_v66.18,,537 New North Rd,0,8213
174.73731,-36.84533,merged_20,7118-20180426095657_v66.18,11040-20180426095657_v66.18,,160 Jervois Rd,0,7118
174.77792,-36.87022,merged_20,7401-20180426095657_v66.18,31900-20180426095657_v66.18,,19 Remuera Rd,0,7401
174.78263,-36.87986,merged_21,11751-20180426102952_v66.19,,,Great South Rd/Dilworth School,1,11751
174.79626000000002,-36.864740000000005,merged_21,31421-20180426102952_v66.19,,,Portland Rd and Shore,1,31421
174.73553,-36.862629999999996,merged_21,8896-20180426102952_v66.19,11099-20180426102952_v66.19,,Opp 9 Surrey Cres,0,8896
174.78288,-36.8489,merged_21,1336-20180426102952_v66.19,11511-20180426102952_v66.19,,Opp 165 The Strand,0,1336
174.76623999999998,-36.8461,merged_21,7048-20180426102952_v66.19,11002-20180426102952_v66.19,,80 Queen St,0,7048
174.76339,-36.853629999999995,merged_20,7060-20180426095657_v66.18,11020-20180426095657_v66.18,,380 Queen St,0,7060
174.79591000000002,-36.870290000000004,merged_20,7677-20180426095657_v66.18,31423-20180426095657_v66.18,,106 Portland Rd,0,7677
174.76956,-36.87357,merged_20,11519-20180426095657_v66.18,,,Mountain Rd near Mercy Hospital,1,11519
174.74881000000002,-36.86978,merged_20,11227-20180426095657_v66.18,,,New North Rd and King,1,11227
174.75048999999999,-36.86144,merged_21,8103-20180426102952_v66.19,11105-20180426102952_v66.19,,87 Great North Rd,0,8103
174.7876,-36.88525,merged_21,7606-20180426102952_v66.19,11596-20180426102952_v66.19,,234 Great South Rd,0,7606
174.77438999999998,-36.8719,merged_21,11739-20180426102952_v66.19,,,Gilles Ave,1,11739
174.76591000000002,-36.84682,merged_20,11003-20180426095657_v66.18,,,Queen St and Vulcan,1,11003
174.78822,-36.86155,merged_21,7669-20180426102952_v66.19,11499-20180426102952_v66.19,,73 Brighton Rd,0,7669
174.76189,-36.85025,merged_21,1332-20180426102952_v66.19,11012-20180426102952_v66.19,,58 Wellesley Street West,0,1332
174.75418,-36.8452,merged_20,11700-20180426095657_v66.18,,,Daldy St Near Pakenham,1,11700
174.77318,-36.84698,merged_21,7179-20180426102952_v66.19,11073-20180426102952_v66.19,,69 Beach Rd,0,7179
174.72881999999998,-36.84822,merged_20,11043-20180426095657_v66.18,,,Jervois Rd and Masons,1,11043
174.73716000000002,-36.8452,merged_21,11040-20180426102952_v66.19,,,Jervois Rd and John,1,11040
174.74083000000002,-36.84538,merged_21,7116-20180426102952_v66.19,11039-20180426102952_v66.19,,90 Jervois Rd,0,7116
174.74307,-36.86164,merged_20,8893-20180426095657_v66.18,11101-20180426095657_v66.18,,69 Williamson Ave,0,8893
174.72679,-36.86254,merged_20,8484-20180426095657_v66.18,11096-20180426095657_v66.18,,50 Old Mill Rd,0,8484
174.75137,-36.87604,merged_20,1043-20180426095657_v66.18,11435-20180426095657_v66.18,,111 Valley Rd,0,1043
174.77714,-36.87304,merged_21,7208-20180426102952_v66.19,11534-20180426102952_v66.19,,410 Broadway,0,7208
174.75904,-36.85731,merged_20,11057-20180426095657_v66.18,,,Karangahape Rd/Pitt St,1,11057
174.74173000000002,-36.87514,merged_21,1406-20180426102952_v66.19,11272-20180426102952_v66.19,,84 Sandringham Rd,0,1406
174.77164,-36.846340000000005,merged_20,7141-20180426095657_v66.18,11066-20180426095657_v66.18,,29 Anzac Ave,0,7141
174.74667,-36.84798,merged_21,7112-20180426102952_v66.19,11008-20180426102952_v66.19,,68 College Hill,0,7112
174.79621,-36.86493,merged_20,7673-20180426095657_v66.18,31421-20180426095657_v66.18,,Opp 195 Portland Rd,0,7673
174.73214,-36.8474,merged_20,7122-20180426095657_v66.18,11042-20180426095657_v66.18,,270 Jervois Rd,0,7122
174.77726,-36.874970000000005,merged_20,7210-20180426095657_v66.18,11535-20180426095657_v66.18,,500 Broadway,0,7210
174.77723,-36.871159999999996,merged_20,7204-20180426095657_v66.18,31417-20180426095657_v66.18,,Opp 277 Broadway,0,7204
174.77041,-36.84863,merged_21,11067-20180426102952_v66.19,,,Waterloo Quadrant,1,11067
174.7303,-36.86327,merged_20,8482-20180426095657_v66.18,11097-20180426095657_v66.18,,65 Surrey Cr,0,8482
174.74638000000002,-36.85665,merged_21,8076-20180426102952_v66.19,11050-20180426102952_v66.19,,2 Richmond Rd,0,8076
174.77139,-36.866170000000004,merged_21,7176-20180426102952_v66.19,11513-20180426102952_v66.19,,Opp 369 Khyber Pass Rd,0,7176
174.76123,-36.877990000000004,merged_21,8511-20180426102952_v66.19,11415-20180426102952_v66.19,,335 Mt Eden Rd,0,8511
174.76306,-36.8582,merged_20,1069-20180426095657_v66.18,11717-20180426095657_v66.18,,Karangahape Rd Near Symonds St,0,1069
174.75704,-36.866640000000004,merged_21,8203-20180426102952_v66.19,11225-20180426102952_v66.19,,131 New North Rd,0,8203
174.76621,-36.84583,merged_20,7047-20180426095657_v66.18,11002-20180426095657_v66.18,,99 Queen St,0,7047
174.77573999999998,-36.88473,merged_21,8708-20180426102952_v66.19,11540-20180426102952_v66.19,,240 Manukau Rd,0,8708
174.73678,-36.88473,merged_20,8046-20180426095657_v66.18,11290-20180426095657_v66.18,,100 St Lukes Rd,0,8046
174.7774,-36.854729999999996,merged_20,0140-20180426095657_v66.18,,,Parnell Train Station,0,140
174.74656000000002,-36.85617,merged_20,7216-20180426095657_v66.18,11050-20180426095657_v66.18,,136 Ponsonby Rd,0,7216
174.77051,-36.85241,merged_20,1031-20180426095657_v66.18,11076-20180426095657_v66.18,,Opp 8 Grafton Rd,0,1031
174.74636999999998,-36.86466,merged_20,8107-20180426095657_v66.18,11107-20180426095657_v66.18,,243 Great North Rd,0,8107
174.78868,-36.84789,merged_21,7307-20180426102952_v66.19,11489-20180426102952_v66.19,,Tamaki Dr opp Solent St,0,7307
174.7287,-36.878029999999995,merged_20,8223-20180426095657_v66.18,11236-20180426095657_v66.18,,717 New North Rd,0,8223
174.76772,-36.85948,merged_20,7284-20180426095657_v66.18,11508-20180426095657_v66.18,,Grafton Rd opp Auckland Hospital Gate 4,0,7284
174.7701,-36.8675,merged_20,8612-20180426095657_v66.18,11516-20180426095657_v66.18,,Mountain Rd near Lion Pl,0,8612
174.77768,-36.85194,merged_21,11500-20180426102952_v66.19,,,Parnell Rise and Parnell,1,11500
174.76416,-36.85136,merged_21,7057-20180426102952_v66.19,11014-20180426102952_v66.19,,Queen St outside The Civic,0,7057
174.73906000000002,-36.88303,merged_21,8307-20180426102952_v66.19,11275-20180426102952_v66.19,,295 Sandringham Rd,0,8307
174.73518,-36.854,merged_21,11084-20180426102952_v66.19,,,Richmond Rd and Westmoreland,1,11084
174.77091000000001,-36.88624,merged_20,8610-20180426095657_v66.18,11527-20180426095657_v66.18,,196 Gillies Ave,0,8610
174.75734,-36.84877,merged_21,1079-20180426102952_v66.19,11707-20180426102952_v66.19,,137 Wellesley St,0,1079
174.78842,-36.861909999999995,merged_21,7662-20180426102952_v66.19,11499-20180426102952_v66.19,,76 Brighton Rd,0,7662
174.77043999999998,-36.87605,merged_21,8623-20180426102952_v66.19,11520-20180426102952_v66.19,,135 Mountain Rd,0,8623
174.76089,-36.847840000000005,merged_21,7102-20180426102952_v66.19,11007-20180426102952_v66.19,,100 Victoria St West,0,7102
174.75956000000002,-36.85785,merged_20,7130-20180426095657_v66.18,11057-20180426095657_v66.18,,214 Karangahape Rd,0,7130
174.76225,-36.87363,merged_21,11413-20180426102952_v66.19-moved,,,Mt Eden Rd/Tahaki Reserve,1,11413
174.73511000000002,-36.86405,merged_20,8118-20180426095657_v66.18,11111-20180426095657_v66.18,,656 Great North Rd,0,8118
174.7752,-36.8457,merged_21,11487-20180426102952_v66.19,,,Quay St and Plumer,1,11487
174.76294,-36.8454,merged_21,1360-20180426102952_v66.19,11016-20180426102952_v66.19,,20 Hobson St,0,1360
174.79088000000002,-36.87925,merged_20,7411-20180426095657_v66.18,31412-20180426095657_v66.18,,235 Remuera Rd,0,7411
174.78761,-36.85617,merged_21,7663-20180426102952_v66.19,11496-20180426102952_v66.19,,Opp 61 St Stephens Ave,0,7663
174.77252,-36.87919,merged_21,11525-20180426102952_v66.19,,,Gillies Ave and Brightside,1,11525
174.77213,-36.850559999999994,merged_21,11072-20180426102952_v66.19,,,Symonds St/St Andrew's (Waterloo Quadrant),1,11072
174.76415,-36.85187,merged_20,7058-20180426095657_v66.18,11014-20180426095657_v66.18,,Queen St outside St James,0,7058
174.77501999999998,-36.86983,merged_20,8600-20180426095657_v66.18,11522-20180426095657_v66.18,,Gillies Ave near Morrow St,0,8600
174.74615,-36.859840000000005,merged_21,11100-20180426102952_v66.19,,,Williamson Ave and Scanlan,1,11100
174.77778999999998,-36.87842,merged_20,1512-20180426095657_v66.18,11617-20180426095657_v66.18,,Margot St and Clyde St,0,1512
174.76708,-36.84243,merged_21,9600-20180426102952_v66.19,96001-20180426102952_v66.19,,Downtown Ferry Terminal Pier 1,0,9600
174.76173,-36.874990000000004,merged_21,8509-20180426102952_v66.19,11414-20180426102952_v66.19,,281 Mt Eden Rd,0,8509
174.75241,-36.84815,merged_20,7108-20180426095657_v66.18,11036-20180426095657_v66.18,,220 Victoria St West,0,7108
174.76221,-36.84822,merged_21,7100-20180426102952_v66.19,11015-20180426102952_v66.19,,Victoria St West outside Sky Tower,0,7100
174.76242,-36.84857,merged_21,11015-20180426102952_v66.19,,,Sky Tower,1,11015
174.76746,-36.84497,merged_20,7017-20180426095657_v66.18,11813-20180426095657_v66.18,,23 Customs St East,0,7017
174.77282,-36.87751,merged_20,8605-20180426095657_v66.18,11524-20180426095657_v66.18,,135 Gillies Ave,0,8605
174.75286,-36.8723,merged_20,8406-20180426095657_v66.18,11431-20180426095657_v66.18,,80 View Rd,0,8406
174.74616,-36.853120000000004,merged_20,11059-20180426095657_v66.18,,,Franklin Rd and Arthur,1,11059
174.77643999999998,-36.87826,merged_21,8701-20180426102952_v66.19,11537-20180426102952_v66.19,,95 Manukau Rd,0,8701
174.739,-36.86681,merged_21,8113-20180426102952_v66.19,11110-20180426102952_v66.19,,465 Great North Rd,0,8113
174.74907,-36.88221,merged_21,8414-20180426102952_v66.19,11376-20180426102952_v66.19,,428 Dominion Rd,0,8414
174.75952,-36.88007,merged_21,8976-20180426102952_v66.19,11437-20180426102952_v66.19,,21 Valley Rd,0,8976
174.76317,-36.85934,merged_20,7160-20180426095657_v66.18,11080-20180426095657_v66.18,,Symonds St Overbridge,0,7160
174.7541,-36.84558,merged_21,7036-20180426102952_v66.19,11031-20180426102952_v66.19,,Fanshawe St near Victoria Park,0,7036
174.76565,-36.84809,merged_20,7052-20180426095657_v66.18,11004-20180426095657_v66.18,,174 Queen St,0,7052
174.76008000000002,-36.86541,merged_20,8201-20180426095657_v66.18,11224-20180426095657_v66.18,,15 New North Rd,0,8201
174.73009,-36.85586,merged_20,8088-20180426095657_v66.18,11086-20180426095657_v66.18,,334 Richmond Rd,0,8088
174.79706000000002,-36.85232,merged_20,7311-20180426095657_v66.18,31001-20180426095657_v66.18,,Tamaki Dr outside Lilliput,0,7311
174.73094,-36.86615,merged_20,11112-20180426095657_v66.18,,,Great North Rd/Bullock Track,1,11112
174.74036999999998,-36.86333,merged_20,8895-20180426095657_v66.18,11102-20180426095657_v66.18,,107 Williamson Ave,0,8895
174.75564,-36.8405,merged_21,11701-20180426102952_v66.19,,,Jellicoe Street and Beaumont,1,11701
174.74174,-36.87474,merged_20,7167-20180426095657_v66.18,11272-20180426095657_v66.18,,63 Sandringham Rd,0,7167
174.74452,-36.850390000000004,merged_21,7221-20180426102952_v66.19,11046-20180426102952_v66.19,,235 Ponsonby Rd,0,7221
174.76918,-36.86959,merged_20,8617-20180426095657_v66.18,11517-20180426095657_v66.18,,Opp 54 Mountain Rd,0,8617
174.78413999999998,-36.84879,merged_20,7653-20180426095657_v66.18,11491-20180426095657_v66.18,,112 Gladstone Rd,0,7653
174.77038000000002,-36.86168,merged_21,1028-20180426102952_v66.19,11765-20180426102952_v66.19,,Auckland Hospital Stop B,0,1028
174.78726,-36.8851,merged_21,7607-20180426102952_v66.19,11596-20180426102952_v66.19,,117 Great South Rd,0,7607
174.75654,-36.87305,merged_21,8404-20180426102952_v66.19,11432-20180426102952_v66.19,,36 View Rd,0,8404
174.74882,-36.85767,merged_20,7214-20180426095657_v66.18,11051-20180426095657_v66.18,,90 Ponsonby Rd,0,7214
174.76778000000002,-36.845209999999994,merged_20,1323-20180426095657_v66.18,11813-20180426095657_v66.18,,Commerce St Opp Achilles House,0,1323
174.78181,-36.8478,merged_21,7305-20180426102952_v66.19,11488-20180426102952_v66.19,,8 Quay St,0,7305
174.73266999999998,-36.862120000000004,merged_21,8899-20180426102952_v66.19,11098-20180426102952_v66.19,,35 Surrey Cres,0,8899
174.7393,-36.882690000000004,merged_20,8310-20180426095657_v66.18,11275-20180426095657_v66.18,,Opp 281 Sandringham Rd,0,8310
174.77065,-36.86537,merged_21,7231-20180426102952_v66.19,11710-20180426102952_v66.19,,191 Park Rd,0,7231
174.75914,-36.85588,merged_20,11026-20180426095657_v66.18,,,Pitt St/YMCA,1,11026
